{
"type": "FeatureCollection",
"name": "poi",
"crs": { "type": "name", "properties": { "name": "urn:ogc:def:crs:OGC:1.3:CRS84" } },
"features": [
{ "type": "Feature", "properties": { "id": 1, "name": "Hessian Spring", "type": "spring" }, "geometry": { "type": "Point", "coordinates": [ -73.9357, 40.85205 ] } },
{ "type": "Feature", "properties": { "id": 2, "name": "Grant's Tomb", "type": "monument" }, "geometry": { "type": "Point", "coordinates": [ -73.96313, 40.81335 ] } },
{ "type": "Feature", "properties": { "id": 3, "name": "Shanty Hill", "type": "settlement" }, "geometry": { "type": "Point", "coordinates": [ -73.97997, 40.78387 ] } },
{ "type": "Feature", "properties": { "id": 4, "name": "Harsenville", "type": "settlement" }, "geometry": { "type": "Point", "coordinates": [ -73.98211, 40.77794 ] } },
{ "type": "Feature", "properties": { "id": 5, "name": "Fort Washington", "type": "fort" }, "geometry": { "type": "Point", "coordinates": [ -73.93778, 40.85277 ] } },
{ "type": "Feature", "properties": { "id": 6, "name": "Fort George", "type": "fort" }, "geometry": { "type": "Point", "coordinates": [ -73.9264, 40.85569 ] } },
{ "type": "Feature", "properties": { "id": 7, "name": "War of 1812 Fortifications", "type": "fort" }, "geometry": { "type": "Point", "coordinates": [ -73.95945, 40.81149 ] } },
{ "type": "Feature", "properties": { "id": 8, "name": "Hamilton Grange", "type": "estate" }, "geometry": { "type": "Point", "coordinates": [ -73.94708, 40.8233 ] } },
{ "type": "Feature", "properties": { "id": 9, "name": "Tubby Hook", "type": "label" }, "geometry": { "type": "Point", "coordinates": [ -73.93178, 40.86979 ] } }
]
}
